$GPGGA,000000.00,0000.0001,N,00000.0006,E,1,08,0.9,10.0,M,0.0,M,,*47
$GPGGA,000000.00,0000.0001,N,00000.0006,E,1,08,0.9,10.0,M,0.0,M,,*47
$GPGGA,000000.00,0000.0001,N,00000.0006,E,1,08,0.9,10.0,M,0.0,M,,*47
$GPGGA,000000.00,0000.0001,N,00000.0006,E,1,08,0.9,10.0,M,0.0,M,,*47
$GPGGA,000000.00,0000.0001,N,00000.0006,E,1,08,0.9,10.0,M,0.0,M,,*47
$GPGGA,000000.00,0000.0001,N,00000.0006,E,1,08,0.9,10.0,M,0.0,M,,*47
$GPGGA,000000.00,0000.0001,N,00000.0006,E,1,08,0.9,10.0,M,0.0,M,,*47
$GPGGA,000000.00,0000.0001,N,00000.0006,E,1,08,0.9,10.0,M,0.0,M,,*47
$GPGGA,000000.00,0000.0001,N,00000.0006,E,1,08,0.9,10.0,M,0.0,M,,*47
$GPGGA,000000.00,0000.0001,N,00000.0006,E,1,08,0.9,10.0,M,0.0,M,,*47
$GPGGA,000000.00,0000.0001,N,00000.0006,E,1,08,0.9,10.0,M,0.0,M,,*47
$GPGGA,000000.00,0000.0001,N,00000.0006,E,1,08,0.9,10.0,M,0.0,M,,*47
$GPGGA,000000.00,0000.0001,N,00000.0006,E,1,08,0.9,10.0,M,0.0,M,,*47
$GPGGA,000000.00,0000.0001,N,00000.0006,E,1,08,0.9,10.0,M,0.0,M,,*47
$GPGGA,000000.00,0000.0001,N,00000.0006,E,1,08,0.9,10.0,M,0.0,M,,*47
$GPGGA,000000.00,0000.0001,N,00000.0006,E,1,08,0.9,10.0,M,0.0,M,,*47
$GPGGA,000000.00,0000.0001,N,00000.0006,E,1,08,0.9,10.0,M,0.0,M,,*47
$GPGGA,000000.00,0000.0001,N,00000.0006,E,1,08,0.9,10.0,M,0.0,M,,*47
$GPGGA,000000.00,0000.0001,N,00000.0006,E,1,08,0.9,10.0,M,0.0,M,,*47
$GPGGA,000000.00,0000.0001,N,00000.0006,E,1,08,0.9,10.0,M,0.0,M,,*47
$GPGGA,000000.00,0000.0001,N,00000.0006,E,1,08,0.9,10.0,M,0.0,M,,*47
$GPGGA,000000.00,0000.0001,N,00000.0006,E,1,08,0.9,10.0,M,0.0,M,,*47
$GPGGA,000000.00,0000.0001,N,00000.0006,E,1,08,0.9,10.0,M,0.0,M,,*47
$GPGGA,000000.00,0000.0001,N,00000.0006,E,1,08,0.9,10.0,M,0.0,M,,*47
$GPGGA,000000.00,0000.0001,N,00000.0006,E,1,08,0.9,10.0,M,0.0,M,,*47
$GPGGA,000000.00,0000.0001,N,00000.0006,E,1,08,0.9,10.0,M,0.0,M,,*47
$GPGGA,000000.00,0000.0001,N,00000.0006,E,1,08,0.9,10.0,M,0.0,M,,*47
$GPGGA,000000.00,0000.0001,N,00000.0006,E,1,08,0.9,10.0,M,0.0,M,,*47
$GPGGA,000000.00,0000.0001,N,00000.0006,E,1,08,0.9,10.0,M,0.0,M,,*47
$GPGGA,000000.00,0000.0001,N,00000.0006,E,1,08,0.9,10.0,M,0.0,M,,*47
$GPGGA,000000.00,0000.0001,N,00000.0006,E,1,08,0.9,10.0,M,0.0,M,,*47
$GPGGA,000000.00,0000.0001,N,00000.0006,E,1,08,0.9,10.0,M,0.0,M,,*47
$GPGGA,000000.00,0000.0001,N,00000.0006,E,1,08,0.9,10.0,M,0.0,M,,*47
$GPGGA,000000.00,0000.0001,N,00000.0006,E,1,08,0.9,10.0,M,0.0,M,,*47
$GPGGA,000000.00,0000.0001,N,00000.0006,E,1,08,0.9,10.0,M,0.0,M,,*47
$GPGGA,000000.00,0000.0001,N,00000.0006,E,1,08,0.9,10.0,M,0.0,M,,*47
$GPGGA,000000.00,0000.0001,N,00000.0006,E,1,08,0.9,10.0,M,0.0,M,,*47
$GPGGA,000000.00,0000.0001,N,00000.0006,E,1,08,0.9,10.0,M,0.0,M,,*47
$GPGGA,000000.00,0000.0001,N,00000.0006,E,1,08,0.9,10.0,M,0.0,M,,*47
$GPGGA,000000.00,0000.0001,N,00000.0006,E,1,08,0.9,10.0,M,0.0,M,,*47
$GPGGA,000000.00,0000.0001,N,00000.0006,E,1,08,0.9,10.0,M,0.0,M,,*47
$GPGGA,000000.00,0000.0001,N,00000.0006,E,1,08,0.9,10.0,M,0.0,M,,*47
$GPGGA,000000.00,0000.0001,N,00000.0006,E,1,08,0.9,10.0,M,0.0,M,,*47
$GPGGA,000000.00,0000.0001,N,00000.0006,E,1,08,0.9,10.0,M,0.0,M,,*47
$GPGGA,000000.00,0000.0001,N,00000.0006,E,1,08,0.9,10.0,M,0.0,M,,*47
$GPGGA,000000.00,0000.0001,N,00000.0006,E,1,08,0.9,10.0,M,0.0,M,,*47
$GPGGA,000000.00,0000.0001,N,00000.0006,E,1,08,0.9,10.0,M,0.0,M,,*47
$GPGGA,000000.00,0000.0001,N,00000.0006,E,1,08,0.9,10.0,M,0.0,M,,*47
$GPGGA,000000.00,0000.0001,N,00000.0006,E,1,08,0.9,10.0,M,0.0,M,,*47
$GPGGA,000000.00,0000.0001,N,00000.0006,E,1,08,0.9,10.0,M,0.0,M,,*47
$GPGGA,000000.00,0000.0001,N,00000.0006,E,1,08,0.9,10.0,M,0.0,M,,*47
$GPGGA,000000.00,0000.0001,N,00000.0006,E,1,08,0.9,10.0,M,0.0,M,,*47
$GPGGA,000000.00,0000.0001,N,00000.0006,E,1,08,0.9,10.0,M,0.0,M,,*47
$GPGGA,000000.00,0000.0001,N,00000.0006,E,1,08,0.9,10.0,M,0.0,M,,*47
$GPGGA,000000.00,0000.0001,N,00000.0006,E,1,08,0.9,10.0,M,0.0,M,,*47
$GPGGA,000000.00,0000.0001,N,00000.0006,E,1,08,0.9,10.0,M,0.0,M,,*47
$GPGGA,000000.00,0000.0001,N,00000.0006,E,1,08,0.9,10.0,M,0.0,M,,*47
$GPGGA,000000.00,0000.0001,N,00000.0006,E,1,08,0.9,10.0,M,0.0,M,,*47
$GPGGA,000000.00,0000.0001,N,00000.0006,E,1,08,0.9,10.0,M,0.0,M,,*47
$GPGGA,000000.00,0000.0001,N,00000.0006,E,1,08,0.9,10.0,M,0.0,M,,*47
$GPGGA,000000.00,0000.0001,N,00000.0006,E,1,08,0.9,10.0,M,0.0,M,,*47
$GPGGA,000000.00,0000.0001,N,00000.0006,E,1,08,0.9,10.0,M,0.0,M,,*47
$GPGGA,000000.00,0000.0001,N,00000.0006,E,1,08,0.9,10.0,M,0.0,M,,*47
$GPGGA,000000.00,0000.0001,N,00000.0006,E,1,08,0.9,10.0,M,0.0,M,,*47
$GPGGA,000000.00,0000.0001,N,00000.0006,E,1,08,0.9,10.0,M,0.0,M,,*47
$GPGGA,000000.00,0000.0001,N,00000.0006,E,1,08,0.9,10.0,M,0.0,M,,*47
$GPGGA,000000.00,0000.0001,N,00000.0006,E,1,08,0.9,10.0,M,0.0,M,,*47
$GPGGA,000000.00,0000.0001,N,00000.0006,E,1,08,0.9,10.0,M,0.0,M,,*47
$GPGGA,000000.00,0000.0001,N,00000.0006,E,1,08,0.9,10.0,M,0.0,M,,*47
$GPGGA,000000.00,0000.0001,N,00000.0006,E,1,08,0.9,10.0,M,0.0,M,,*47
$GPGGA,000000.00,0000.0001,N,00000.0006,E,1,08,0.9,10.0,M,0.0,M,,*47
$GPGGA,000000.00,0000.0001,N,00000.0006,E,1,08,0.9,10.0,M,0.0,M,,*47
$GPGGA,000000.00,0000.0001,N,00000.0006,E,1,08,0.9,10.0,M,0.0,M,,*47
$GPGGA,000000.00,0000.0001,N,00000.0006,E,1,08,0.9,10.0,M,0.0,M,,*47
$GPGGA,000000.00,0000.0001,N,00000.0006,E,1,08,0.9,10.0,M,0.0,M,,*47
$GPGGA,000000.00,0000.0001,N,00000.0006,E,1,08,0.9,10.0,M,0.0,M,,*47
$GPGGA,000000.00,0000.0001,N,00000.0006,E,1,08,0.9,10.0,M,0.0,M,,*47
$GPGGA,000000.00,0000.0001,N,00000.0006,E,1,08,0.9,10.0,M,0.0,M,,*47
$GPGGA,000000.00,0000.0001,N,00000.0006,E,1,08,0.9,10.0,M,0.0,M,,*47
$GPGGA,000000.00,0000.0001,N,00000.0006,E,1,08,0.9,10.0,M,0.0,M,,*47
$GPGGA,000000.00,0000.0001,N,00000.0006,E,1,08,0.9,10.0,M,0.0,M,,*47
$GPGGA,000000.00,0000.0001,N,00000.0006,E,1,08,0.9,10.0,M,0.0,M,,*47
$GPGGA,000000.00,0000.0001,N,00000.0006,E,1,08,0.9,10.0,M,0.0,M,,*47
$GPGGA,000000.00,0000.0001,N,00000.0006,E,1,08,0.9,10.0,M,0.0,M,,*47
$GPGGA,000000.00,0000.0001,N,00000.0006,E,1,08,0.9,10.0,M,0.0,M,,*47
$GPGGA,000000.00,0000.0001,N,00000.0006,E,1,08,0.9,10.0,M,0.0,M,,*47
$GPGGA,000000.00,0000.0001,N,00000.0006,E,1,08,0.9,10.0,M,0.0,M,,*47
$GPGGA,000000.00,0000.0001,N,00000.0006,E,1,08,0.9,10.0,M,0.0,M,,*47
$GPGGA,000000.00,0000.0001,N,00000.0006,E,1,08,0.9,10.0,M,0.0,M,,*47
$GPGGA,000000.00,0000.0001,N,00000.0006,E,1,08,0.9,10.0,M,0.0,M,,*47
$GPGGA,000000.00,0000.0001,N,00000.0006,E,1,08,0.9,10.0,M,0.0,M,,*47
$GPGGA,000000.00,0000.0001,N,00000.0006,E,1,08,0.9,10.0,M,0.0,M,,*47
$GPGGA,000000.00,0000.0001,N,00000.0006,E,1,08,0.9,10.0,M,0.0,M,,*47
$GPGGA,000000.00,0000.0001,N,00000.0006,E,1,08,0.9,10.0,M,0.0,M,,*47
$GPGGA,000000.00,0000.0001,N,00000.0006,E,1,08,0.9,10.0,M,0.0,M,,*47
$GPGGA,000000.00,0000.0001,N,00000.0006,E,1,08,0.9,10.0,M,0.0,M,,*47
$GPGGA,000000.00,0000.0001,N,00000.0006,E,1,08,0.9,10.0,M,0.0,M,,*47
$GPGGA,000000.00,0000.0001,N,00000.0006,E,1,08,0.9,10.0,M,0.0,M,,*47
$GPGGA,000000.00,0000.0001,N,00000.0006,E,1,08,0.9,10.0,M,0.0,M,,*47
$GPGGA,000000.00,0000.0001,N,00000.0006,E,1,08,0.9,10.0,M,0.0,M,,*47
$GPGGA,000000.00,0000.0001,N,00000.0006,E,1,08,0.9,10.0,M,0.0,M,,*47
$GPGGA,000000.00,0000.0001,N,00000.0006,E,1,08,0.9,10.0,M,0.0,M,,*47
$GPGGA,000000.00,0000.0001,N,00000.0006,E,1,08,0.9,10.0,M,0.0,M,,*47
$GPGGA,000000.00,0000.0001,N,00000.0006,E,1,08,0.9,10.0,M,0.0,M,,*47
$GPGGA,000000.00,0000.0001,N,00000.0006,E,1,08,0.9,10.0,M,0.0,M,,*47
$GPGGA,000000.00,0000.0001,N,00000.0006,E,1,08,0.9,10.0,M,0.0,M,,*47
$GPGGA,000000.00,0000.0001,N,00000.0006,E,1,08,0.9,10.0,M,0.0,M,,*47
$GPGGA,000000.00,0000.0001,N,00000.0006,E,1,08,0.9,10.0,M,0.0,M,,*47
$GPGGA,000000.00,0000.0001,N,00000.0006,E,1,08,0.9,10.0,M,0.0,M,,*47
$GPGGA,000000.00,0000.0001,N,00000.0006,E,1,08,0.9,10.0,M,0.0,M,,*47
$GPGGA,000000.00,0000.0001,N,00000.0006,E,1,08,0.9,10.0,M,0.0,M,,*47
$GPGGA,000000.00,0000.0001,N,00000.0006,E,1,08,0.9,10.0,M,0.0,M,,*47
$GPGGA,000000.00,0000.0001,N,00000.0006,E,1,08,0.9,10.0,M,0.0,M,,*47
$GPGGA,000000.00,0000.0001,N,00000.0006,E,1,08,0.9,10.0,M,0.0,M,,*47
$GPGGA,000000.00,0000.0001,N,00000.0006,E,1,08,0.9,10.0,M,0.0,M,,*47
$GPGGA,000000.00,0000.0001,N,00000.0006,E,1,08,0.9,10.0,M,0.0,M,,*47
$GPGGA,000000.00,0000.0001,N,00000.0006,E,1,08,0.9,10.0,M,0.0,M,,*47
$GPGGA,000000.00,0000.0001,N,00000.0006,E,1,08,0.9,10.0,M,0.0,M,,*47
$GPGGA,000000.00,0000.0001,N,00000.0006,E,1,08,0.9,10.0,M,0.0,M,,*47
$GPGGA,000000.00,0000.0001,N,00000.0006,E,1,08,0.9,10.0,M,0.0,M,,*47
$GPGGA,000000.00,0000.0001,N,00000.0006,E,1,08,0.9,10.0,M,0.0,M,,*47
$GPGGA,000000.00,0000.0001,N,00000.0006,E,1,08,0.9,10.0,M,0.0,M,,*47
$GPGGA,000000.00,0000.0001,N,00000.0006,E,1,08,0.9,10.0,M,0.0,M,,*47
$GPGGA,000000.00,0000.0001,N,00000.0006,E,1,08,0.9,10.0,M,0.0,M,,*47
$GPGGA,000000.00,0000.0001,N,00000.0006,E,1,08,0.9,10.0,M,0.0,M,,*47
$GPGGA,000000.00,0000.0001,N,00000.0006,E,1,08,0.9,10.0,M,0.0,M,,*47
$GPGGA,000000.00,0000.0001,N,00000.0006,E,1,08,0.9,10.0,M,0.0,M,,*47
$GPGGA,000000.00,0000.0001,N,00000.0006,E,1,08,0.9,10.0,M,0.0,M,,*47
$GPGGA,000000.00,0000.0001,N,00000.0006,E,1,08,0.9,10.0,M,0.0,M,,*47
$GPGGA,000000.00,0000.0001,N,00000.0006,E,1,08,0.9,10.0,M,0.0,M,,*47
$GPGGA,000000.00,0000.0001,N,00000.0006,E,1,08,0.9,10.0,M,0.0,M,,*47
$GPGGA,000000.00,0000.0001,N,00000.0006,E,1,08,0.9,10.0,M,0.0,M,,*47
$GPGGA,000000.00,0000.0001,N,00000.0006,E,1,08,0.9,10.0,M,0.0,M,,*47
$GPGGA,000000.00,0000.0001,N,00000.0006,E,1,08,0.9,10.0,M,0.0,M,,*47
$GPGGA,000000.00,0000.0001,N,00000.0006,E,1,08,0.9,10.0,M,0.0,M,,*47
$GPGGA,000000.00,0000.0001,N,00000.0006,E,1,08,0.9,10.0,M,0.0,M,,*47
$GPGGA,000000.00,0000.0001,N,00000.0006,E,1,08,0.9,10.0,M,0.0,M,,*47
$GPGGA,000000.00,0000.0001,N,00000.0006,E,1,08,0.9,10.0,M,0.0,M,,*47
$GPGGA,000000.00,0000.0001,N,00000.0006,E,1,08,0.9,10.0,M,0.0,M,,*47
$GPGGA,000000.00,0000.0001,N,00000.0006,E,1,08,0.9,10.0,M,0.0,M,,*47
$GPGGA,000000.00,0000.0001,N,00000.0006,E,1,08,0.9,10.0,M,0.0,M,,*47
$GPGGA,000000.00,0000.0001,N,00000.0006,E,1,08,0.9,10.0,M,0.0,M,,*47
$GPGGA,000000.00,0000.0001,N,00000.0006,E,1,08,0.9,10.0,M,0.0,M,,*47
$GPGGA,000000.00,0000.0001,N,00000.0006,E,1,08,0.9,10.0,M,0.0,M,,*47
$GPGGA,000000.00,0000.0001,N,00000.0006,E,1,08,0.9,10.0,M,0.0,M,,*47
$GPGGA,000000.00,0000.0001,N,00000.0006,E,1,08,0.9,10.0,M,0.0,M,,*47
$GPGGA,000000.00,0000.0001,N,00000.0006,E,1,08,0.9,10.0,M,0.0,M,,*47
$GPGGA,000000.00,0000.0001,N,00000.0006,E,1,08,0.9,10.0,M,0.0,M,,*47
$GPGGA,000000.00,0000.0001,N,00000.0006,E,1,08,0.9,10.0,M,0.0,M,,*47
$GPGGA,000000.00,0000.0001,N,00000.0006,E,1,08,0.9,10.0,M,0.0,M,,*47
$GPGGA,000000.00,0000.0001,N,00000.0006,E,1,08,0.9,10.0,M,0.0,M,,*47
$GPGGA,000000.00,0000.0001,N,00000.0006,E,1,08,0.9,10.0,M,0.0,M,,*47
$GPGGA,000000.00,0000.0001,N,00000.0006,E,1,08,0.9,10.0,M,0.0,M,,*47
$GPGGA,000000.00,0000.0001,N,00000.0006,E,1,08,0.9,10.0,M,0.0,M,,*47
$GPGGA,000000.00,0000.0001,N,00000.0006,E,1,08,0.9,10.0,M,0.0,M,,*47
$GPGGA,000000.00,0000.0001,N,00000.0006,E,1,08,0.9,10.0,M,0.0,M,,*47
$GPGGA,000000.00,0000.0001,N,00000.0006,E,1,08,0.9,10.0,M,0.0,M,,*47
$GPGGA,000000.00,0000.0001,N,00000.0006,E,1,08,0.9,10.0,M,0.0,M,,*47
$GPGGA,000000.00,0000.0001,N,00000.0006,E,1,08,0.9,10.0,M,0.0,M,,*47
$GPGGA,000000.00,0000.0001,N,00000.0006,E,1,08,0.9,10.0,M,0.0,M,,*47
$GPGGA,000000.00,0000.0001,N,00000.0006,E,1,08,0.9,10.0,M,0.0,M,,*47
$GPGGA,000000.00,0000.0001,N,00000.0006,E,1,08,0.9,10.0,M,0.0,M,,*47
$GPGGA,000000.00,0000.0001,N,00000.0006,E,1,08,0.9,10.0,M,0.0,M,,*47
$GPGGA,000000.00,0000.0001,N,00000.0006,E,1,08,0.9,10.0,M,0.0,M,,*47
$GPGGA,000000.00,0000.0001,N,00000.0006,E,1,08,0.9,10.0,M,0.0,M,,*47
$GPGGA,000000.00,0000.0001,N,00000.0006,E,1,08,0.9,10.0,M,0.0,M,,*47
$GPGGA,000000.00,0000.0001,N,00000.0006,E,1,08,0.9,10.0,M,0.0,M,,*47
$GPGGA,000000.00,0000.0001,N,00000.0006,E,1,08,0.9,10.0,M,0.0,M,,*47
$GPGGA,000000.00,0000.0001,N,00000.0006,E,1,08,0.9,10.0,M,0.0,M,,*47
$GPGGA,000000.00,0000.0001,N,00000.0006,E,1,08,0.9,10.0,M,0.0,M,,*47
$GPGGA,000000.00,0000.0001,N,00000.0006,E,1,08,0.9,10.0,M,0.0,M,,*47
$GPGGA,000000.00,0000.0001,N,00000.0006,E,1,08,0.9,10.0,M,0.0,M,,*47
$GPGGA,000000.00,0000.0001,N,00000.0006,E,1,08,0.9,10.0,M,0.0,M,,*47
$GPGGA,000000.00,0000.0001,N,00000.0006,E,1,08,0.9,10.0,M,0.0,M,,*47
$GPGGA,000000.00,0000.0001,N,00000.0006,E,1,08,0.9,10.0,M,0.0,M,,*47
$GPGGA,000000.00,0000.0001,N,00000.0006,E,1,08,0.9,10.0,M,0.0,M,,*47
$GPGGA,000000.00,0000.0001,N,00000.0006,E,1,08,0.9,10.0,M,0.0,M,,*47
$GPGGA,000000.00,0000.0001,N,00000.0006,E,1,08,0.9,10.0,M,0.0,M,,*47
$GPGGA,000000.00,0000.0001,N,00000.0006,E,1,08,0.9,10.0,M,0.0,M,,*47
$GPGGA,000000.00,0000.0001,N,00000.0006,E,1,08,0.9,10.0,M,0.0,M,,*47
$GPGGA,000000.00,0000.0001,N,00000.0006,E,1,08,0.9,10.0,M,0.0,M,,*47
$GPGGA,000000.00,0000.0001,N,00000.0006,E,1,08,0.9,10.0,M,0.0,M,,*47
$GPGGA,000000.00,0000.0001,N,00000.0006,E,1,08,0.9,10.0,M,0.0,M,,*47
$GPGGA,000000.00,0000.0001,N,00000.0006,E,1,08,0.9,10.0,M,0.0,M,,*47
$GPGGA,000000.00,0000.0001,N,00000.0006,E,1,08,0.9,10.0,M,0.0,M,,*47
$GPGGA,000000.00,0000.0001,N,00000.0006,E,1,08,0.9,10.0,M,0.0,M,,*47
$GPGGA,000000.00,0000.0001,N,00000.0006,E,1,08,0.9,10.0,M,0.0,M,,*47
$GPGGA,000000.00,0000.0001,N,00000.0006,E,1,08,0.9,10.0,M,0.0,M,,*47
$GPGGA,000000.00,0000.0001,N,00000.0006,E,1,08,0.9,10.0,M,0.0,M,,*47
$GPGGA,000000.00,0000.0001,N,00000.0006,E,1,08,0.9,10.0,M,0.0,M,,*47
$GPGGA,000000.00,0000.0001,N,00000.0006,E,1,08,0.9,10.0,M,0.0,M,,*47
$GPGGA,000000.00,0000.0001,N,00000.0006,E,1,08,0.9,10.0,M,0.0,M,,*47
$GPGGA,000000.00,0000.0001,N,00000.0006,E,1,08,0.9,10.0,M,0.0,M,,*47
$GPGGA,000000.00,0000.0001,N,00000.0006,E,1,08,0.9,10.0,M,0.0,M,,*47
$GPGGA,000000.00,0000.0001,N,00000.0006,E,1,08,0.9,10.0,M,0.0,M,,*47
$GPGGA,000000.00,0000.0001,N,00000.0006,E,1,08,0.9,10.0,M,0.0,M,,*47
$GPGGA,000000.00,0000.0001,N,00000.0006,E,1,08,0.9,10.0,M,0.0,M,,*47
$GPGGA,000000.00,0000.0001,N,00000.0006,E,1,08,0.9,10.0,M,0.0,M,,*47
$GPGGA,000000.00,0000.0001,N,00000.0006,E,1,08,0.9,10.0,M,0.0,M,,*47
$GPGGA,000000.00,0000.0001,N,00000.0006,E,1,08,0.9,10.0,M,0.0,M,,*47
$GPGGA,000000.00,0000.0001,N,00000.0006,E,1,08,0.9,10.0,M,0.0,M,,*47
$GPGGA,000000.00,0000.0001,N,00000.0006,E,1,08,0.9,10.0,M,0.0,M,,*47
$GPGGA,000000.00,0000.0001,N,00000.0006,E,1,08,0.9,10.0,M,0.0,M,,*47
$GPGGA,000000.00,0000.0001,N,00000.0006,E,1,08,0.9,10.0,M,0.0,M,,*47
$GPGGA,000000.00,0000.0001,N,00000.0006,E,1,08,0.9,10.0,M,0.0,M,,*47
$GPGGA,000000.00,0000.0001,N,00000.0006,E,1,08,0.9,10.0,M,0.0,M,,*47
$GPGGA,000000.00,0000.0001,N,00000.0006,E,1,08,0.9,10.0,M,0.0,M,,*47
$GPGGA,000000.00,0000.0001,N,00000.0006,E,1,08,0.9,10.0,M,0.0,M,,*47
$GPGGA,000000.00,0000.0001,N,00000.0006,E,1,08,0.9,10.0,M,0.0,M,,*47
$GPGGA,000000.00,0000.0001,N,00000.0006,E,1,08,0.9,10.0,M,0.0,M,,*47
$GPGGA,000000.00,0000.0001,N,00000.0006,E,1,08,0.9,10.0,M,0.0,M,,*47
$GPGGA,000000.00,0000.0001,N,00000.0006,E,1,08,0.9,10.0,M,0.0,M,,*47
$GPGGA,000000.00,0000.0001,N,00000.0006,E,1,08,0.9,10.0,M,0.0,M,,*47
$GPGGA,000000.00,0000.0001,N,00000.0006,E,1,08,0.9,10.0,M,0.0,M,,*47
$GPGGA,000000.00,0000.0001,N,00000.0006,E,1,08,0.9,10.0,M,0.0,M,,*47
$GPGGA,000000.00,0000.0001,N,00000.0006,E,1,08,0.9,10.0,M,0.0,M,,*47
$GPGGA,000000.00,0000.0001,N,00000.0006,E,1,08,0.9,10.0,M,0.0,M,,*47
$GPGGA,000000.00,0000.0001,N,00000.0006,E,1,08,0.9,10.0,M,0.0,M,,*47
$GPGGA,000000.00,0000.0001,N,00000.0006,E,1,08,0.9,10.0,M,0.0,M,,*47
$GPGGA,000000.00,0000.0001,N,00000.0006,E,1,08,0.9,10.0,M,0.0,M,,*47
$GPGGA,000000.00,0000.0001,N,00000.0006,E,1,08,0.9,10.0,M,0.0,M,,*47
$GPGGA,000000.00,0000.0001,N,00000.0006,E,1,08,0.9,10.0,M,0.0,M,,*47
$GPGGA,000000.00,0000.0001,N,00000.0006,E,1,08,0.9,10.0,M,0.0,M,,*47
$GPGGA,000000.00,0000.0001,N,00000.0006,E,1,08,0.9,10.0,M,0.0,M,,*47
$GPGGA,000000.00,0000.0001,N,00000.0006,E,1,08,0.9,10.0,M,0.0,M,,*47
$GPGGA,000000.00,0000.0001,N,00000.0006,E,1,08,0.9,10.0,M,0.0,M,,*47
$GPGGA,000000.00,0000.0001,N,00000.0006,E,1,08,0.9,10.0,M,0.0,M,,*47
$GPGGA,000000.00,0000.0001,N,00000.0006,E,1,08,0.9,10.0,M,0.0,M,,*47
$GPGGA,000000.00,0000.0001,N,00000.0006,E,1,08,0.9,10.0,M,0.0,M,,*47
$GPGGA,000000.00,0000.0001,N,00000.0006,E,1,08,0.9,10.0,M,0.0,M,,*47
$GPGGA,000000.00,0000.0001,N,00000.0006,E,1,08,0.9,10.0,M,0.0,M,,*47
$GPGGA,000000.00,0000.0001,N,00000.0006,E,1,08,0.9,10.0,M,0.0,M,,*47
$GPGGA,000000.00,0000.0001,N,00000.0006,E,1,08,0.9,10.0,M,0.0,M,,*47
$GPGGA,000000.00,0000.0001,N,00000.0006,E,1,08,0.9,10.0,M,0.0,M,,*47
$GPGGA,000000.00,0000.0001,N,00000.0006,E,1,08,0.9,10.0,M,0.0,M,,*47
$GPGGA,000000.00,0000.0001,N,00000.0006,E,1,08,0.9,10.0,M,0.0,M,,*47
$GPGGA,000000.00,0000.0001,N,00000.0006,E,1,08,0.9,10.0,M,0.0,M,,*47
$GPGGA,000000.00,0000.0001,N,00000.0006,E,1,08,0.9,10.0,M,0.0,M,,*47
$GPGGA,000000.00,0000.0001,N,00000.0006,E,1,08,0.9,10.0,M,0.0,M,,*47
$GPGGA,000000.00,0000.0001,N,00000.0006,E,1,08,0.9,10.0,M,0.0,M,,*47
$GPGGA,000000.00,0000.0001,N,00000.0006,E,1,08,0.9,10.0,M,0.0,M,,*47
$GPGGA,000000.00,0000.0001,N,00000.0006,E,1,08,0.9,10.0,M,0.0,M,,*47
$GPGGA,000000.00,0000.0001,N,00000.0006,E,1,08,0.9,10.0,M,0.0,M,,*47
$GPGGA,000000.00,0000.0001,N,00000.0006,E,1,08,0.9,10.0,M,0.0,M,,*47
$GPGGA,000000.00,0000.0001,N,00000.0006,E,1,08,0.9,10.0,M,0.0,M,,*47
$GPGGA,000000.00,0000.0001,N,00000.0006,E,1,08,0.9,10.0,M,0.0,M,,*47
$GPGGA,000000.00,0000.0001,N,00000.0006,E,1,08,0.9,10.0,M,0.0,M,,*47
$GPGGA,000000.00,0000.0001,N,00000.0006,E,1,08,0.9,10.0,M,0.0,M,,*47
$GPGGA,000000.00,0000.0001,N,00000.0006,E,1,08,0.9,10.0,M,0.0,M,,*47
$GPGGA,000000.00,0000.0001,N,00000.0006,E,1,08,0.9,10.0,M,0.0,M,,*47
$GPGGA,000000.00,0000.0001,N,00000.0006,E,1,08,0.9,10.0,M,0.0,M,,*47
$GPGGA,000000.00,0000.0001,N,00000.0006,E,1,08,0.9,10.0,M,0.0,M,,*47
$GPGGA,000000.00,0000.0001,N,00000.0006,E,1,08,0.9,10.0,M,0.0,M,,*47
$GPGGA,000000.00,0000.0001,N,00000.0006,E,1,08,0.9,10.0,M,0.0,M,,*47
$GPGGA,000000.00,0000.0001,N,00000.0006,E,1,08,0.9,10.0,M,0.0,M,,*47
$GPGGA,000000.00,0000.0001,N,00000.0006,E,1,08,0.9,10.0,M,0.0,M,,*47
$GPGGA,000000.00,0000.0001,N,00000.0006,E,1,08,0.9,10.0,M,0.0,M,,*47
$GPGGA,000000.00,0000.0001,N,00000.0006,E,1,08,0.9,10.0,M,0.0,M,,*47
$GPGGA,000000.00,0000.0001,N,00000.0006,E,1,08,0.9,10.0,M,0.0,M,,*47
$GPGGA,000000.00,0000.0001,N,00000.0006,E,1,08,0.9,10.0,M,0.0,M,,*47
$GPGGA,000000.00,0000.0001,N,00000.0006,E,1,08,0.9,10.0,M,0.0,M,,*47
$GPGGA,000000.00,0000.0001,N,00000.0006,E,1,08,0.9,10.0,M,0.0,M,,*47
$GPGGA,000000.00,0000.0001,N,00000.0006,E,1,08,0.9,10.0,M,0.0,M,,*47
$GPGGA,000000.00,0000.0001,N,00000.0006,E,1,08,0.9,10.0,M,0.0,M,,*47
$GPGGA,000000.00,0000.0001,N,00000.0006,E,1,08,0.9,10.0,M,0.0,M,,*47
$GPGGA,000000.00,0000.0001,N,00000.0006,E,1,08,0.9,10.0,M,0.0,M,,*47
$GPGGA,000000.00,0000.0001,N,00000.0006,E,1,08,0.9,10.0,M,0.0,M,,*47
$GPGGA,000000.00,0000.0001,N,00000.0006,E,1,08,0.9,10.0,M,0.0,M,,*47
$GPGGA,000000.00,0000.0001,N,00000.0006,E,1,08,0.9,10.0,M,0.0,M,,*47
$GPGGA,000000.00,0000.0001,N,00000.0006,E,1,08,0.9,10.0,M,0.0,M,,*47
$GPGGA,000000.00,0000.0001,N,00000.0006,E,1,08,0.9,10.0,M,0.0,M,,*47
$GPGGA,000000.00,0000.0001,N,00000.0006,E,1,08,0.9,10.0,M,0.0,M,,*47
$GPGGA,000000.00,0000.0001,N,00000.0006,E,1,08,0.9,10.0,M,0.0,M,,*47
$GPGGA,000000.00,0000.0001,N,00000.0006,E,1,08,0.9,10.0,M,0.0,M,,*47
$GPGGA,000000.00,0000.0001,N,00000.0006,E,1,08,0.9,10.0,M,0.0,M,,*47
$GPGGA,000000.00,0000.0001,N,00000.0006,E,1,08,0.9,10.0,M,0.0,M,,*47
$GPGGA,000000.00,0000.0001,N,00000.0006,E,1,08,0.9,10.0,M,0.0,M,,*47
$GPGGA,000000.00,0000.0001,N,00000.0006,E,1,08,0.9,10.0,M,0.0,M,,*47
$GPGGA,000000.00,0000.0001,N,00000.0006,E,1,08,0.9,10.0,M,0.0,M,,*47
$GPGGA,000000.00,0000.0001,N,00000.0006,E,1,08,0.9,10.0,M,0.0,M,,*47
$GPGGA,000000.00,0000.0001,N,00000.0006,E,1,08,0.9,10.0,M,0.0,M,,*47
$GPGGA,000000.00,0000.0001,N,00000.0006,E,1,08,0.9,10.0,M,0.0,M,,*47
$GPGGA,000000.00,0000.0001,N,00000.0006,E,1,08,0.9,10.0,M,0.0,M,,*47
$GPGGA,000000.00,0000.0001,N,00000.0006,E,1,08,0.9,10.0,M,0.0,M,,*47
$GPGGA,000000.00,0000.0001,N,00000.0006,E,1,08,0.9,10.0,M,0.0,M,,*47
$GPGGA,000000.00,0000.0001,N,00000.0006,E,1,08,0.9,10.0,M,0.0,M,,*47
$GPGGA,000000.00,0000.0001,N,00000.0006,E,1,08,0.9,10.0,M,0.0,M,,*47
$GPGGA,000000.00,0000.0001,N,00000.0006,E,1,08,0.9,10.0,M,0.0,M,,*47
$GPGGA,000000.00,0000.0001,N,00000.0006,E,1,08,0.9,10.0,M,0.0,M,,*47
$GPGGA,000000.00,0000.0001,N,00000.0006,E,1,08,0.9,10.0,M,0.0,M,,*47
$GPGGA,000000.00,0000.0001,N,00000.0006,E,1,08,0.9,10.0,M,0.0,M,,*47
$GPGGA,000000.00,0000.0001,N,00000.0006,E,1,08,0.9,10.0,M,0.0,M,,*47
$GPGGA,000000.00,0000.0001,N,00000.0006,E,1,08,0.9,10.0,M,0.0,M,,*47
$GPGGA,000000.00,0000.0001,N,00000.0006,E,1,08,0.9,10.0,M,0.0,M,,*47
$GPGGA,000000.00,0000.0001,N,00000.0006,E,1,08,0.9,10.0,M,0.0,M,,*47
$GPGGA,000000.00,0000.0001,N,00000.0006,E,1,08,0.9,10.0,M,0.0,M,,*47
$GPGGA,000000.00,0000.0001,N,00000.0006,E,1,08,0.9,10.0,M,0.0,M,,*47
$GPGGA,000000.00,0000.0001,N,00000.0006,E,1,08,0.9,10.0,M,0.0,M,,*47
$GPGGA,000000.00,0000.0001,N,00000.0006,E,1,08,0.9,10.0,M,0.0,M,,*47
$GPGGA,000000.00,0000.0001,N,00000.0006,E,1,08,0.9,10.0,M,0.0,M,,*47
$GPGGA,000000.00,0000.0001,N,00000.0006,E,1,08,0.9,10.0,M,0.0,M,,*47
$GPGGA,000000.00,0000.0001,N,00000.0006,E,1,08,0.9,10.0,M,0.0,M,,*47
$GPGGA,000000.00,0000.0001,N,00000.0006,E,1,08,0.9,10.0,M,0.0,M,,*47
$GPGGA,000000.00,0000.0001,N,00000.0006,E,1,08,0.9,10.0,M,0.0,M,,*47
$GPGGA,000000.00,0000.0001,N,00000.0006,E,1,08,0.9,10.0,M,0.0,M,,*47
$GPGGA,000000.00,0000.0001,N,00000.0006,E,1,08,0.9,10.0,M,0.0,M,,*47
$GPGGA,000000.00,0000.0001,N,00000.0006,E,1,08,0.9,10.0,M,0.0,M,,*47
$GPGGA,000000.00,0000.0001,N,00000.0006,E,1,08,0.9,10.0,M,0.0,M,,*47
$GPGGA,000000.00,0000.0001,N,00000.0006,E,1,08,0.9,10.0,M,0.0,M,,*47
$GPGGA,000000.00,0000.0001,N,00000.0006,E,1,08,0.9,10.0,M,0.0,M,,*47
$GPGGA,000000.00,0000.0001,N,00000.0006,E,1,08,0.9,10.0,M,0.0,M,,*47
$GPGGA,000000.00,0000.0001,N,00000.0006,E,1,08,0.9,10.0,M,0.0,M,,*47
$GPGGA,000000.00,0000.0001,N,00000.0006,E,1,08,0.9,10.0,M,0.0,M,,*47
$GPGGA,000000.00,0000.0001,N,00000.0006,E,1,08,0.9,10.0,M,0.0,M,,*47
$GPGGA,000000.00,0000.0001,N,00000.0006,E,1,08,0.9,10.0,M,0.0,M,,*47
$GPGGA,000000.00,0000.0001,N,00000.0006,E,1,08,0.9,10.0,M,0.0,M,,*47
$GPGGA,000000.00,0000.0001,N,00000.0006,E,1,08,0.9,10.0,M,0.0,M,,*47
$GPGGA,000000.00,0000.0001,N,00000.0006,E,1,08,0.9,10.0,M,0.0,M,,*47
$GPGGA,000000.00,0000.0001,N,00000.0006,E,1,08,0.9,10.0,M,0.0,M,,*47
$GPGGA,000000.00,0000.0001,N,00000.0006,E,1,08,0.9,10.0,M,0.0,M,,*47
$GPGGA,000000.00,0000.0001,N,00000.0006,E,1,08,0.9,10.0,M,0.0,M,,*47
$GPGGA,000000.00,0000.0001,N,00000.0006,E,1,08,0.9,10.0,M,0.0,M,,*47
$GPGGA,000000.00,0000.0001,N,00000.0006,E,1,08,0.9,10.0,M,0.0,M,,*47
$GPGGA,000000.00,0000.0001,N,00000.0006,E,1,08,0.9,10.0,M,0.0,M,,*47
$GPGGA,000000.00,0000.0001,N,00000.0006,E,1,08,0.9,10.0,M,0.0,M,,*47
$GPGGA,000000.00,0000.0001,N,00000.0006,E,1,08,0.9,10.0,M,0.0,M,,*47
$GPGGA,000000.00,0000.0001,N,00000.0006,E,1,08,0.9,10.0,M,0.0,M,,*47
$GPGGA,000000.00,0000.0001,N,00000.0006,E,1,08,0.9,10.0,M,0.0,M,,*47
$GPGGA,000000.00,0000.0001,N,00000.0006,E,1,08,0.9,10.0,M,0.0,M,,*47
$GPGGA,000000.00,0000.0001,N,00000.0006,E,1,08,0.9,10.0,M,0.0,M,,*47
$GPGGA,000000.00,0000.0001,N,00000.0006,E,1,08,0.9,10.0,M,0.0,M,,*47
$GPGGA,000000.00,0000.0001,N,00000.0006,E,1,08,0.9,10.0,M,0.0,M,,*47
$GPGGA,000000.00,0000.0001,N,00000.0006,E,1,08,0.9,10.0,M,0.0,M,,*47
$GPGGA,000000.00,0000.0001,N,00000.0006,E,1,08,0.9,10.0,M,0.0,M,,*47
$GPGGA,000000.00,0000.0001,N,00000.0006,E,1,08,0.9,10.0,M,0.0,M,,*47
$GPGGA,000000.00,0000.0001,N,00000.0006,E,1,08,0.9,10.0,M,0.0,M,,*47
$GPGGA,000000.00,0000.0001,N,00000.0006,E,1,08,0.9,10.0,M,0.0,M,,*47
$GPGGA,000000.00,0000.0001,N,00000.0006,E,1,08,0.9,10.0,M,0.0,M,,*47
$GPGGA,000000.00,0000.0001,N,00000.0006,E,1,08,0.9,10.0,M,0.0,M,,*47
$GPGGA,000000.00,0000.0001,N,00000.0006,E,1,08,0.9,10.0,M,0.0,M,,*47
$GPGGA,000000.00,0000.0001,N,00000.0006,E,1,08,0.9,10.0,M,0.0,M,,*47
$GPGGA,000000.00,0000.0001,N,00000.0006,E,1,08,0.9,10.0,M,0.0,M,,*47
$GPGGA,000000.00,0000.0001,N,00000.0006,E,1,08,0.9,10.0,M,0.0,M,,*47
$GPGGA,000000.00,0000.0001,N,00000.0006,E,1,08,0.9,10.0,M,0.0,M,,*47
$GPGGA,000000.00,0000.0001,N,00000.0006,E,1,08,0.9,10.0,M,0.0,M,,*47
$GPGGA,000000.00,0000.0001,N,00000.0006,E,1,08,0.9,10.0,M,0.0,M,,*47
$GPGGA,000000.00,0000.0001,N,00000.0006,E,1,08,0.9,10.0,M,0.0,M,,*47
$GPGGA,000000.00,0000.0001,N,00000.0006,E,1,08,0.9,10.0,M,0.0,M,,*47
$GPGGA,000000.00,0000.0001,N,00000.0006,E,1,08,0.9,10.0,M,0.0,M,,*47
$GPGGA,000000.00,0000.0001,N,00000.0006,E,1,08,0.9,10.0,M,0.0,M,,*47
$GPGGA,000000.00,0000.0001,N,00000.0006,E,1,08,0.9,10.0,M,0.0,M,,*47
$GPGGA,000000.00,0000.0001,N,00000.0006,E,1,08,0.9,10.0,M,0.0,M,,*47
$GPGGA,000000.00,0000.0001,N,00000.0006,E,1,08,0.9,10.0,M,0.0,M,,*47
$GPGGA,000000.00,0000.0001,N,00000.0006,E,1,08,0.9,10.0,M,0.0,M,,*47
$GPGGA,000000.00,0000.0001,N,00000.0006,E,1,08,0.9,10.0,M,0.0,M,,*47
$GPGGA,000000.00,0000.0001,N,00000.0006,E,1,08,0.9,10.0,M,0.0,M,,*47
$GPGGA,000000.00,0000.0001,N,00000.0006,E,1,08,0.9,10.0,M,0.0,M,,*47
$GPGGA,000000.00,0000.0001,N,00000.0006,E,1,08,0.9,10.0,M,0.0,M,,*47
$GPGGA,000000.00,0000.0001,N,00000.0006,E,1,08,0.9,10.0,M,0.0,M,,*47
$GPGGA,000000.00,0000.0001,N,00000.0006,E,1,08,0.9,10.0,M,0.0,M,,*47
$GPGGA,000000.00,0000.0001,N,00000.0006,E,1,08,0.9,10.0,M,0.0,M,,*47
$GPGGA,000000.00,0000.0001,N,00000.0006,E,1,08,0.9,10.0,M,0.0,M,,*47
$GPGGA,000000.00,0000.0001,N,00000.0006,E,1,08,0.9,10.0,M,0.0,M,,*47
$GPGGA,000000.00,0000.0001,N,00000.0006,E,1,08,0.9,10.0,M,0.0,M,,*47
$GPGGA,000000.00,0000.0001,N,00000.0006,E,1,08,0.9,10.0,M,0.0,M,,*47
$GPGGA,000000.00,0000.0001,N,00000.0006,E,1,08,0.9,10.0,M,0.0,M,,*47
